,City,Country,Date,Lat,Lng,Max Temp,Humidity,Cloudiness,Wind Speed,Current Description,Rain inches (last 3 hrs),Snow inches (last 3 hrs)
0,New Norfolk,AU,2020-02-22 17:58:24,-42.78,147.06,53.6,81,40,3.36,scattered clouds,0.0,0.0
1,Punta Arenas,CL,2020-02-22 17:54:49,-53.15,-70.92,71.6,52,100,10.29,overcast clouds,0.0,0.0
2,Avarua,CK,2020-02-22 17:58:25,-21.21,-159.78,82.4,83,93,8.05,light rain,0.94,0.0
3,Bardiyah,LY,2020-02-22 17:58:25,31.76,25.09,57.0,74,58,18.43,light rain,0.63,0.0
4,Sao Gabriel Da Cachoeira,BR,2020-02-22 17:58:25,-0.13,-67.09,82.4,88,75,2.24,broken clouds,0.0,0.0
5,Hermanus,ZA,2020-02-22 17:58:25,-34.42,19.23,66.0,99,100,1.99,light rain,0.12,0.0
6,Nuuk,GL,2020-02-22 17:58:25,64.18,-51.72,15.8,61,75,5.82,light shower snow,0.0,0.0
7,Brigantine,US,2020-02-22 17:58:26,39.41,-74.36,48.99,17,1,11.41,clear sky,0.0,0.0
8,Arman,RU,2020-02-22 17:58:26,59.7,150.17,-1.19,94,100,4.03,overcast clouds,0.0,0.0
9,Mabaruma,GY,2020-02-22 17:58:26,8.2,-59.78,85.03,61,88,2.55,light rain,0.56,0.0
10,Ushuaia,AR,2020-02-22 17:58:26,-54.8,-68.3,66.2,55,20,3.36,few clouds,0.0,0.0
11,Mataura,NZ,2020-02-22 17:58:27,-46.19,168.86,51.01,79,39,5.01,scattered clouds,0.0,0.0
12,Bathsheba,BB,2020-02-22 17:58:27,13.22,-59.52,84.2,66,20,12.75,few clouds,0.0,0.0
13,Liboro,PH,2020-02-22 17:58:27,13.82,122.73,72.25,88,6,9.33,clear sky,0.0,0.0
14,Lata,PT,2020-02-22 17:58:27,40.16,-8.33,64.4,63,16,10.29,few clouds,0.0,0.0
15,Riihimaki,FI,2020-02-22 17:58:27,60.74,24.78,42.01,93,75,24.16,light rain,0.0,0.0
16,Zhangye,CN,2020-02-22 17:58:27,38.93,100.45,35.71,31,0,7.76,clear sky,0.0,0.0
17,Northam,GB,2020-02-22 17:58:28,51.03,-4.22,51.8,76,20,13.87,few clouds,0.0,0.0
18,Nouadhibou,MR,2020-02-22 17:57:31,20.93,-17.03,68.0,72,20,23.04,sand,0.0,0.0
19,Lodwar,KE,2020-02-22 17:58:28,3.12,35.6,91.38,34,36,18.21,scattered clouds,0.0,0.0
20,Lompoc,US,2020-02-22 17:58:28,34.64,-120.46,62.01,82,40,3.36,light rain,0.0,0.0
21,Iisalmi,FI,2020-02-22 17:58:28,63.56,27.19,33.8,96,90,24.16,light snow,0.0,0.0
22,Acapulco,MX,2020-02-22 17:57:52,16.86,-99.89,86.0,66,5,6.93,clear sky,0.0,0.0
23,Darnah,LY,2020-02-22 17:58:29,32.77,22.64,56.95,69,39,20.47,light rain,0.56,0.0
24,Jamestown,US,2020-02-22 17:57:52,42.1,-79.24,39.99,54,1,13.87,clear sky,0.0,0.0
25,Peniche,PT,2020-02-22 17:58:29,39.36,-9.38,71.01,40,5,9.17,clear sky,0.0,0.0
26,Guerrero Negro,MX,2020-02-22 17:58:29,27.98,-114.06,62.78,68,100,11.41,light rain,0.12,0.0
27,Sisimiut,GL,2020-02-22 17:58:30,66.94,-53.67,-4.38,85,71,3.49,broken clouds,0.0,0.0
28,Mar Del Plata,AR,2020-02-22 17:55:12,-38.0,-57.56,68.0,55,20,9.17,few clouds,0.0,0.0
29,Bredasdorp,ZA,2020-02-22 17:58:30,-34.53,20.04,66.2,82,100,8.05,light rain,0.31,0.0
30,Albany,US,2020-02-22 17:53:50,42.6,-73.97,42.01,56,1,16.11,clear sky,0.0,0.0
31,Hilo,US,2020-02-22 17:58:30,19.73,-155.09,68.0,82,75,8.05,broken clouds,0.0,0.0
32,Atar,MR,2020-02-22 17:58:30,20.52,-13.05,93.81,7,74,11.56,broken clouds,0.0,0.0
33,Balsas,BR,2020-02-22 17:58:31,-7.53,-46.04,87.28,58,36,2.64,scattered clouds,0.0,0.0
34,Yellowknife,CA,2020-02-22 17:53:56,62.46,-114.35,1.0,77,75,9.17,broken clouds,0.0,0.0
35,Port Elizabeth,ZA,2020-02-22 17:58:31,-33.92,25.57,68.0,88,75,28.86,light rain,0.0,0.0
36,Almaznyy,RU,2020-02-22 17:58:31,48.04,40.05,33.8,99,75,6.71,light snow,0.0,0.0
37,East London,ZA,2020-02-22 17:58:32,-33.02,27.91,71.6,73,20,19.46,few clouds,0.0,0.0
38,Tiksi,RU,2020-02-22 17:58:32,71.69,128.87,-10.79,91,92,9.78,overcast clouds,0.0,0.0
39,Clyde River,CA,2020-02-22 17:58:32,70.47,-68.59,-22.0,74,1,5.82,clear sky,0.0,0.0
40,Siparia,TT,2020-02-22 17:58:32,10.13,-61.5,82.0,69,40,10.29,shower rain,0.0,0.0
41,Chimbote,PE,2020-02-22 17:58:32,-9.09,-78.58,86.11,44,100,12.37,overcast clouds,0.0,0.0
42,Rundu,NA,2020-02-22 17:58:33,-17.93,19.77,80.6,69,66,9.17,broken clouds,0.0,0.0
43,Port Alfred,ZA,2020-02-22 17:58:33,-33.59,26.89,68.0,93,31,8.01,scattered clouds,0.0,0.0
44,Port Blair,IN,2020-02-22 17:58:33,11.67,92.75,81.27,76,31,12.55,scattered clouds,0.0,0.0
45,Khatanga,RU,2020-02-22 17:58:33,71.97,102.5,2.52,82,98,13.51,overcast clouds,0.0,0.0
46,Bintulu,MY,2020-02-22 17:58:33,3.17,113.03,75.2,100,75,3.36,broken clouds,0.0,0.0
47,Madisonville,US,2020-02-22 17:56:19,37.33,-87.5,46.99,22,1,4.7,clear sky,0.0,0.0
48,Ivanjica,RS,2020-02-22 17:58:34,43.58,20.23,41.0,56,0,2.24,clear sky,0.0,0.0
49,Bethel,US,2020-02-22 17:58:34,41.37,-73.41,46.99,27,1,6.93,clear sky,0.0,0.0
50,Carnarvon,AU,2020-02-22 17:58:34,-24.87,113.63,77.0,83,40,8.05,scattered clouds,0.0,0.0
51,Salalah,OM,2020-02-22 17:57:42,17.02,54.09,77.0,69,20,4.7,few clouds,0.0,0.0
52,Kapaa,US,2020-02-22 17:58:35,22.08,-159.32,73.4,73,20,10.29,light rain,0.0,0.0
53,Barrow,US,2020-02-22 17:58:35,71.29,-156.79,-11.2,76,90,3.36,light snow,0.0,0.0
54,Mayya,RU,2020-02-22 17:58:35,61.73,130.28,-18.4,82,96,6.71,light snow,0.0,0.0
55,Sakaiminato,JP,2020-02-22 17:58:35,35.55,133.23,48.2,45,40,20.8,scattered clouds,0.0,0.0
56,Hobart,AU,2020-02-22 17:58:35,-42.88,147.33,53.6,81,40,3.36,scattered clouds,0.0,0.0
57,Busselton,AU,2020-02-22 17:58:36,-33.65,115.33,66.99,63,3,9.4,clear sky,0.0,0.0
58,Ambilobe,MG,2020-02-22 17:58:36,-13.2,49.05,77.25,90,100,3.51,light rain,1.56,0.0
59,Esperance,AU,2020-02-22 17:58:36,-33.87,121.9,68.0,72,90,8.05,overcast clouds,0.0,0.0
60,Arraial Do Cabo,BR,2020-02-22 17:58:36,-22.97,-42.03,78.8,69,75,11.41,broken clouds,0.0,0.0
61,Bambous Virieux,MU,2020-02-22 17:58:37,-20.34,57.76,78.8,83,40,3.36,scattered clouds,0.0,0.0
62,Port-Gentil,GA,2020-02-22 17:58:37,-0.72,8.78,84.2,83,20,6.93,few clouds,0.0,0.0
63,Puerto Ayora,EC,2020-02-22 17:58:37,-0.74,-90.35,82.4,78,75,8.05,shower rain,0.0,0.0
64,Khor,RU,2020-02-22 17:58:37,47.89,134.95,12.27,90,100,4.41,overcast clouds,0.0,0.0
65,Xining,CN,2020-02-22 17:58:37,36.62,101.77,28.85,21,0,5.59,clear sky,0.0,0.0
66,Luebo,CD,2020-02-22 17:58:37,-5.35,21.42,80.76,64,100,1.66,overcast clouds,0.0,0.0
67,Hornepayne,CA,2020-02-22 17:58:38,49.21,-84.77,34.79,88,30,11.95,scattered clouds,0.0,0.0
68,Cabedelo,BR,2020-02-22 17:58:38,-6.98,-34.83,87.8,66,40,13.87,scattered clouds,0.0,0.0
69,Sao Filipe,CV,2020-02-22 17:58:38,14.9,-24.5,69.55,76,61,22.26,broken clouds,0.0,0.0
70,Visby,SE,2020-02-22 17:58:38,57.64,18.3,42.01,75,65,29.97,broken clouds,0.0,0.0
71,Djibo,BF,2020-02-22 17:58:39,14.1,-1.63,89.76,8,50,10.09,scattered clouds,0.0,0.0
72,Rikitea,PF,2020-02-22 17:58:39,-23.12,-134.97,77.94,72,10,5.06,light rain,0.44,0.0
73,Luena,AO,2020-02-22 17:58:39,-11.78,19.92,69.26,87,100,1.01,light rain,0.94,0.0
74,Honiara,SB,2020-02-22 17:58:39,-9.43,159.95,73.17,91,5,3.06,clear sky,0.0,0.0
75,Rio Gallegos,AR,2020-02-22 17:56:24,-51.62,-69.22,77.0,31,66,18.34,broken clouds,0.0,0.0
76,Bluff,NZ,2020-02-22 17:57:40,-46.6,168.33,51.01,79,67,5.01,broken clouds,0.0,0.0
77,Cape Town,ZA,2020-02-22 17:58:40,-33.93,18.42,68.0,77,20,17.22,few clouds,0.0,0.0
78,Airai,TL,2020-02-22 17:58:40,-8.93,125.41,66.97,88,53,3.56,broken clouds,0.0,0.0
79,Iwanai,JP,2020-02-22 17:58:40,42.97,140.51,31.26,80,100,25.68,light snow,0.0,1.0
80,Teya,RU,2020-02-22 17:58:40,60.38,92.63,12.69,95,94,2.77,overcast clouds,0.0,0.0
81,Vaini,TO,2020-02-22 17:58:40,-21.2,-175.2,77.0,94,75,4.7,broken clouds,0.0,0.0
82,Marzuq,YE,2020-02-22 17:57:20,14.4,46.47,65.37,72,0,5.14,clear sky,0.0,0.0
83,Hamilton,US,2020-02-22 17:54:18,39.18,-84.53,46.0,35,1,10.29,clear sky,0.0,0.0
84,Fallon,US,2020-02-22 17:54:04,39.47,-118.78,46.0,35,75,5.14,broken clouds,0.0,0.0
85,Nantucket,US,2020-02-22 17:55:19,41.28,-70.1,44.6,48,1,19.46,clear sky,0.0,0.0
86,Ribeira Grande,PT,2020-02-22 17:58:41,38.52,-28.7,60.8,72,75,5.82,broken clouds,0.0,0.0
87,Lebu,CL,2020-02-22 17:58:41,-37.62,-73.65,69.22,57,3,6.13,clear sky,0.0,0.0
88,Pisco,PE,2020-02-22 17:58:42,-13.7,-76.22,79.0,30,75,10.29,broken clouds,0.0,0.0
89,Isiro,CD,2020-02-22 17:58:42,2.77,27.62,82.9,38,87,3.47,overcast clouds,0.0,0.0
90,Bongandanga,CD,2020-02-22 17:58:42,1.5,21.05,82.22,43,71,1.66,broken clouds,0.0,0.0
91,Kununurra,AU,2020-02-22 17:55:51,-15.77,128.73,75.2,83,75,1.12,broken clouds,0.0,0.0
92,Marienburg,PL,2020-02-22 17:58:42,54.04,19.03,46.99,70,75,23.04,broken clouds,0.0,0.0
93,Shingu,JP,2020-02-22 17:58:42,33.73,135.98,49.87,62,0,19.73,clear sky,0.0,0.0
94,Torbay,CA,2020-02-22 17:58:43,47.67,-52.73,28.0,62,75,18.34,broken clouds,0.0,0.0
95,Butaritari,KI,2020-02-22 17:55:38,3.07,172.79,83.35,70,99,6.51,overcast clouds,0.0,0.0
96,Zhigansk,RU,2020-02-22 17:58:43,66.77,123.37,-16.2,98,80,5.21,broken clouds,0.0,0.0
97,Bairiki,KI,2020-02-22 17:57:22,1.33,172.98,82.4,83,40,5.82,scattered clouds,0.0,0.0
98,Dombarovskiy,RU,2020-02-22 17:58:43,50.76,59.54,13.55,98,63,3.98,broken clouds,0.0,0.0
99,Tasiilaq,GL,2020-02-22 17:58:44,65.61,-37.64,17.6,61,75,3.36,broken clouds,0.0,0.0
100,Saint-Francois,FR,2020-02-22 17:58:44,46.42,3.91,51.8,53,0,2.24,clear sky,0.0,0.0
101,Dvinskoy,RU,2020-02-22 17:58:44,62.15,45.12,33.12,84,60,14.47,broken clouds,0.0,0.0
102,Murmashi,RU,2020-02-22 17:58:44,68.82,32.81,37.4,90,75,11.18,broken clouds,0.0,0.0
103,Tornio,FI,2020-02-22 17:58:45,65.85,24.13,35.6,100,90,9.17,light rain,0.0,0.0
104,Salinas,US,2020-02-22 17:58:45,36.68,-121.66,61.0,82,90,4.7,overcast clouds,0.0,0.0
105,Ponta Do Sol,PT,2020-02-22 17:58:45,32.67,-17.1,70.0,72,40,20.8,scattered clouds,0.0,0.0
106,Loikaw,MM,2020-02-22 17:58:45,19.67,97.21,67.19,48,62,3.67,broken clouds,0.0,0.0
107,Kodiak,US,2020-02-22 17:58:45,57.79,-152.41,15.8,52,40,22.01,scattered clouds,0.0,0.0
108,Kahului,US,2020-02-22 17:56:51,20.89,-156.47,71.01,68,40,21.12,scattered clouds,0.0,0.0
109,Port Lincoln,AU,2020-02-22 17:55:57,-34.73,135.87,64.4,78,3,9.08,clear sky,0.0,0.0
110,Saskylakh,RU,2020-02-22 17:58:46,71.92,114.08,-16.1,94,73,4.12,broken clouds,0.0,0.0
111,Magaria,NE,2020-02-22 17:58:46,13.0,8.91,82.69,12,35,11.3,scattered clouds,0.0,0.0
112,Ilulissat,GL,2020-02-22 17:58:46,69.22,-51.1,-0.4,54,75,11.41,broken clouds,0.0,0.0
113,Pacific Grove,US,2020-02-22 17:58:47,36.62,-121.92,60.01,82,90,4.7,overcast clouds,0.0,0.0
114,Port Hardy,CA,2020-02-22 17:58:47,50.7,-127.42,33.8,100,40,4.7,scattered clouds,0.0,0.0
115,Atuona,PF,2020-02-22 17:58:47,-9.8,-139.03,81.64,79,36,13.69,light rain,0.5,0.0
116,Dikson,RU,2020-02-22 17:58:47,73.51,80.55,14.67,93,100,25.32,light snow,0.0,1.06
117,Oudtshoorn,ZA,2020-02-22 17:58:47,-33.59,22.2,64.4,93,90,5.82,light rain,0.0,0.0
118,Cidreira,BR,2020-02-22 17:58:48,-30.18,-50.21,68.95,72,19,19.46,light rain,0.38,0.0
119,Alpena,US,2020-02-22 17:56:07,45.06,-83.43,43.0,52,1,4.7,clear sky,0.0,0.0
120,Tigil,RU,2020-02-22 17:58:48,57.8,158.67,0.77,92,100,7.58,overcast clouds,0.0,0.0
121,Isparta,TR,2020-02-22 17:58:48,38.0,31.0,37.4,86,75,3.36,light rain,0.0,0.0
122,Vostok,RU,2020-02-22 17:58:48,46.49,135.88,9.01,96,100,6.08,light snow,0.0,0.94
123,Aden,YE,2020-02-22 17:57:13,12.78,45.04,75.97,73,28,9.13,scattered clouds,0.0,0.0
124,Emirdag,TR,2020-02-22 17:58:49,39.02,31.15,30.36,98,100,8.66,snow,0.0,1.56
125,Naze,JP,2020-02-22 17:58:49,28.37,129.48,60.8,67,0,14.99,clear sky,0.0,0.0
126,Yulara,AU,2020-02-22 17:58:49,-25.24,130.99,77.0,17,0,8.05,clear sky,0.0,0.0
127,Dudinka,RU,2020-02-22 17:58:50,69.41,86.18,8.6,92,40,20.13,light snow,0.0,0.0
128,Caraballeda,VE,2020-02-22 17:58:50,10.61,-66.85,81.0,72,89,10.29,light rain,0.13,0.0
129,Kavieng,PG,2020-02-22 17:58:50,-2.57,150.8,83.25,74,22,5.75,few clouds,0.0,0.0
130,Saldanha,ZA,2020-02-22 17:58:50,-33.01,17.94,71.6,68,44,13.87,scattered clouds,0.0,0.0
131,Znin,PL,2020-02-22 17:58:50,52.85,17.72,52.0,61,75,16.11,broken clouds,0.0,0.0
132,Sadasivpet,IN,2020-02-22 17:58:50,17.62,77.95,75.0,48,0,4.0,clear sky,0.0,0.0
133,Saint George,US,2020-02-22 17:58:51,37.1,-113.58,57.99,33,40,16.11,scattered clouds,0.0,0.0
134,Nizwa,OM,2020-02-22 17:58:51,22.93,57.53,71.65,44,8,6.93,clear sky,0.0,0.0
135,Saint-Philippe,RE,2020-02-22 17:58:51,-21.36,55.77,78.8,69,65,6.93,light rain,0.31,0.0
136,Dourados,BR,2020-02-22 17:56:36,-22.22,-54.81,79.11,55,0,9.57,clear sky,0.0,0.0
137,Kalmunai,LK,2020-02-22 17:58:51,7.42,81.82,81.21,79,72,18.14,broken clouds,0.0,0.0
138,Zhaoyang,CN,2020-02-22 17:58:51,42.68,126.03,10.67,81,0,8.48,clear sky,0.0,0.0
139,Pemberton,CA,2020-02-22 17:54:12,50.32,-122.8,32.0,94,90,2.24,overcast clouds,0.0,0.0
140,Port-De-Bouc,FR,2020-02-22 17:58:52,43.4,4.98,55.4,76,0,8.05,clear sky,0.0,0.0
141,Lambari,BR,2020-02-22 17:58:52,-21.98,-45.35,74.71,87,75,6.29,moderate rain,3.88,0.0
142,Chuy,UY,2020-02-22 17:58:52,-33.7,-53.46,69.78,54,85,10.07,light rain,0.19,0.0
143,Urumqi,CN,2020-02-22 17:58:52,43.8,87.6,19.4,85,99,2.24,overcast clouds,0.0,0.0
144,Bindura,ZW,2020-02-22 17:58:53,-17.3,31.33,70.39,94,63,2.82,light rain,1.5,0.0
145,Kochki,RU,2020-02-22 17:58:53,54.34,80.48,25.57,95,100,2.04,overcast clouds,0.0,0.0
146,Vardo,NO,2020-02-22 17:57:12,70.37,31.11,35.4,79,86,33.87,overcast clouds,0.0,0.0
147,Bandarbeyla,SO,2020-02-22 17:58:53,9.49,50.81,77.27,77,0,17.72,clear sky,0.0,0.0
148,Nanortalik,GL,2020-02-22 17:58:53,60.14,-45.24,23.45,77,73,5.93,broken clouds,0.0,0.0
149,Castro,BR,2020-02-22 17:57:11,-24.79,-50.01,71.71,79,92,3.91,light rain,0.62,0.0
150,Olinda,BR,2020-02-22 17:58:54,-8.01,-34.86,86.0,70,40,9.17,scattered clouds,0.0,0.0
151,Susangerd,IR,2020-02-22 17:58:54,31.56,48.18,62.6,67,0,2.24,clear sky,0.0,0.0
152,Kenai,US,2020-02-22 17:58:54,60.55,-151.26,15.01,85,90,3.36,light snow,0.0,0.0
153,Shenjiamen,CN,2020-02-22 17:58:55,29.96,122.3,50.05,65,0,10.09,clear sky,0.0,0.0
154,Kaitangata,NZ,2020-02-22 17:58:55,-46.28,169.85,51.01,74,59,5.01,broken clouds,0.0,0.0
155,Bima,ID,2020-02-22 17:58:55,-8.47,118.72,72.12,95,84,1.81,broken clouds,0.0,0.0
156,Rosetta,EG,2020-02-22 17:58:55,31.4,30.42,59.0,54,40,11.41,scattered clouds,0.0,0.0
157,Vila Velha,BR,2020-02-22 17:54:51,-20.33,-40.29,82.0,78,40,14.99,scattered clouds,0.0,0.0
158,Point Pedro,LK,2020-02-22 17:58:55,9.82,80.23,80.96,76,100,20.67,overcast clouds,0.0,0.0
159,Akyab,MM,2020-02-22 17:58:56,20.15,92.9,73.02,49,0,6.17,clear sky,0.0,0.0
160,Ixtapa,MX,2020-02-22 17:58:56,20.7,-105.2,81.0,69,5,4.7,clear sky,0.0,0.0
161,Fairbanks,US,2020-02-22 17:58:56,64.84,-147.72,10.0,84,90,2.3,light snow,0.0,0.0
162,Faya,SA,2020-02-22 17:58:56,18.39,42.45,66.2,55,100,5.82,overcast clouds,0.0,0.0
163,Atasu,KZ,2020-02-22 17:58:56,48.68,71.64,16.29,93,100,9.4,overcast clouds,0.0,0.0
164,Georgetown,MY,2020-02-22 17:55:39,5.41,100.34,80.6,94,20,1.12,few clouds,0.0,0.0
165,Hare Bay,CA,2020-02-22 17:58:57,48.85,-54.01,23.0,57,20,25.28,few clouds,0.0,0.0
166,Hobyo,SO,2020-02-22 17:58:57,5.35,48.53,77.29,77,4,16.84,clear sky,0.0,0.0
167,Chokurdakh,RU,2020-02-22 17:58:57,70.63,147.92,-16.51,97,100,1.14,overcast clouds,0.0,0.0
168,Kilindoni,TZ,2020-02-22 17:56:34,-7.91,39.67,84.87,77,100,16.87,overcast clouds,0.0,0.0
169,Nyurba,RU,2020-02-22 17:58:58,63.28,118.33,-8.57,95,100,0.69,overcast clouds,0.0,0.0
170,Longyearbyen,SJ,2020-02-22 17:58:58,78.22,15.64,1.4,64,20,13.87,few clouds,0.0,0.0
171,Olafsvik,IS,2020-02-22 17:56:31,64.89,-23.71,29.07,70,99,8.55,overcast clouds,0.0,0.0
172,Thompson,CA,2020-02-22 17:58:58,55.74,-97.86,14.0,72,20,5.82,few clouds,0.0,0.0
173,Flinders,AU,2020-02-22 17:58:58,-34.58,150.86,70.0,100,90,15.23,overcast clouds,0.0,0.0
174,Maceio,BR,2020-02-22 17:57:23,-9.67,-35.74,89.6,62,40,12.75,scattered clouds,0.0,0.0
175,Tan An,VN,2020-02-22 17:58:59,10.53,106.42,78.8,57,20,6.93,few clouds,0.0,0.0
176,Asau,RO,2020-02-22 17:56:30,46.43,26.4,34.0,86,49,4.7,scattered clouds,0.0,0.0
177,Mehamn,NO,2020-02-22 17:58:59,71.04,27.85,30.25,80,51,20.96,broken clouds,0.0,0.0
178,Point Pleasant,US,2020-02-22 17:58:59,40.08,-74.07,48.99,19,1,12.75,clear sky,0.0,0.0
179,Koslan,RU,2020-02-22 17:59:00,63.46,48.9,32.45,89,100,16.44,overcast clouds,0.0,0.0
180,Touros,BR,2020-02-22 17:56:09,-5.2,-35.46,86.0,74,75,12.75,broken clouds,0.0,0.0
181,Sept-Iles,CA,2020-02-22 17:59:00,50.2,-66.38,34.0,63,75,8.05,broken clouds,0.0,0.0
182,Pevek,RU,2020-02-22 17:59:00,69.7,170.31,-12.41,98,100,10.11,light snow,0.0,0.13
183,Rostovka,RU,2020-02-22 17:59:00,55.38,71.89,22.1,96,91,6.89,light snow,0.0,0.13
184,Portland,US,2020-02-22 17:56:08,45.52,-122.68,45.0,93,75,4.7,broken clouds,0.0,0.0
185,Manggar,ID,2020-02-22 17:57:06,-2.88,108.27,82.15,79,52,11.23,light rain,0.25,0.0
186,Saint-Joseph,RE,2020-02-22 17:59:01,-21.37,55.62,78.8,69,47,6.93,scattered clouds,0.0,0.0
187,Shablykino,RU,2020-02-22 17:59:01,52.86,35.2,31.8,85,6,13.82,clear sky,0.0,0.0
188,Mandurah,AU,2020-02-22 17:56:15,-32.55,115.7,73.0,78,40,4.7,scattered clouds,0.0,0.0
189,Mirnyy,RU,2020-02-22 17:59:01,62.54,113.96,5.0,84,40,2.24,light shower snow,0.0,0.0
190,Vila,PT,2020-02-22 17:56:38,42.03,-8.16,64.4,55,0,1.12,clear sky,0.0,0.0
191,Moose Factory,CA,2020-02-22 17:58:37,51.26,-80.61,35.6,51,40,14.99,scattered clouds,0.0,0.0
192,Moen,NO,2020-02-22 17:59:02,69.13,18.61,39.2,60,87,20.8,overcast clouds,0.0,0.0
193,Milkovo,RU,2020-02-22 17:59:02,54.72,158.62,-5.35,79,0,3.33,clear sky,0.0,0.0
194,Tuktoyaktuk,CA,2020-02-22 17:59:02,69.45,-133.04,6.8,84,90,5.82,light snow,0.0,0.0
195,Vila Praia De Ancora,PT,2020-02-22 17:59:02,41.81,-8.85,64.4,55,0,1.12,clear sky,0.0,0.0
196,Eenhana,NA,2020-02-22 17:59:03,-17.47,16.33,77.81,58,83,0.78,broken clouds,0.0,0.0
197,Grindavik,IS,2020-02-22 17:59:03,63.84,-22.43,32.0,70,75,4.7,broken clouds,0.0,0.0
198,Gubin,PL,2020-02-22 17:59:03,51.95,14.73,54.0,56,100,11.99,overcast clouds,0.0,0.0
199,Cap Malheureux,MU,2020-02-22 17:59:03,-19.98,57.61,78.8,83,40,3.36,scattered clouds,0.0,0.0
200,Te Anau,NZ,2020-02-22 17:59:03,-45.42,167.72,47.66,74,32,3.8,scattered clouds,0.0,0.0
201,Mahebourg,MU,2020-02-22 17:59:04,-20.41,57.7,78.8,83,40,3.36,scattered clouds,0.0,0.0
202,San Carlos De Bariloche,AR,2020-02-22 17:54:45,-41.15,-71.31,73.4,32,0,4.7,clear sky,0.0,0.0
203,Shimoda,JP,2020-02-22 17:59:04,34.67,138.95,43.0,47,0,3.0,clear sky,0.0,0.0
204,North Bend,US,2020-02-22 17:54:11,43.41,-124.22,46.99,100,1,2.82,clear sky,0.0,0.0
205,Santa Vitoria Do Palmar,BR,2020-02-22 17:59:04,-33.52,-53.37,69.78,54,85,10.07,light rain,0.19,0.0
206,Alta Floresta,BR,2020-02-22 17:59:05,-9.88,-56.09,86.0,70,40,4.7,scattered clouds,0.0,0.0
207,Wasilla,US,2020-02-22 17:54:54,61.58,-149.44,19.4,92,90,1.21,light snow,0.0,0.0
208,Camrose,CA,2020-02-22 17:54:08,53.02,-112.84,36.0,79,90,4.7,overcast clouds,0.0,0.0
209,Conde,BR,2020-02-22 17:59:05,-7.26,-34.91,87.8,66,40,13.87,scattered clouds,0.0,0.0
210,Razole,IN,2020-02-22 17:59:06,16.48,81.83,68.83,86,0,2.3,clear sky,0.0,0.0
211,Takoradi,GH,2020-02-22 17:59:06,4.88,-1.76,81.86,81,100,7.83,light rain,0.25,0.0
212,Peace River,CA,2020-02-22 17:59:06,56.25,-117.29,32.0,75,20,21.92,few clouds,0.0,0.0
213,Cherskiy,RU,2020-02-22 17:59:06,68.75,161.3,-19.89,98,99,4.72,overcast clouds,0.0,0.0
214,Katsuura,JP,2020-02-22 17:59:06,35.13,140.3,51.8,40,75,16.11,broken clouds,0.0,0.0
215,Selma,US,2020-02-22 17:59:07,36.57,-119.61,64.0,93,75,10.47,broken clouds,0.0,0.0
216,Tawau,MY,2020-02-22 17:59:07,4.25,117.89,77.0,88,75,2.24,broken clouds,0.0,0.0
217,Broken Hill,AU,2020-02-22 17:59:07,-31.95,141.43,69.8,29,0,10.29,clear sky,0.0,0.0
218,Calvinia,ZA,2020-02-22 17:59:07,-31.47,19.78,75.24,22,0,10.71,clear sky,0.0,0.0
219,Qaanaaq,GL,2020-02-22 17:59:07,77.48,-69.36,-14.96,64,100,4.36,overcast clouds,0.0,0.0
220,Ucluelet,CA,2020-02-22 17:58:09,48.93,-125.55,41.0,100,20,3.15,few clouds,0.0,0.0
221,Rocha,UY,2020-02-22 17:59:08,-34.48,-54.33,69.73,46,92,9.89,overcast clouds,0.0,0.0
222,Abong Mbang,CM,2020-02-22 17:59:08,3.98,13.18,84.87,24,58,2.8,broken clouds,0.0,0.0
223,Cabo San Lucas,MX,2020-02-22 17:58:57,22.89,-109.91,82.99,53,5,4.7,clear sky,0.0,0.0
224,Bulgan,MN,2020-02-22 17:59:08,48.81,103.53,16.7,69,100,3.98,overcast clouds,0.0,0.0
225,Oum Hadjer,TD,2020-02-22 17:59:08,13.3,19.7,82.4,8,0,10.2,clear sky,0.0,0.0
226,Amursk,RU,2020-02-22 17:59:09,50.23,136.9,4.98,88,93,9.84,overcast clouds,0.0,0.0
227,Yar-Sale,RU,2020-02-22 17:59:09,66.83,70.83,17.8,91,94,19.26,overcast clouds,0.0,0.0
228,Araouane,ML,2020-02-22 17:59:09,18.9,-3.53,86.76,8,88,7.83,overcast clouds,0.0,0.0
229,Luderitz,NA,2020-02-22 17:59:09,-26.65,15.16,71.6,64,0,24.16,clear sky,0.0,0.0
230,Hithadhoo,MV,2020-02-22 17:59:09,-0.6,73.08,82.02,80,100,12.08,light rain,0.13,0.0
231,Pangkalanbuun,ID,2020-02-22 17:59:09,-2.68,111.62,73.96,97,47,1.88,scattered clouds,0.0,0.0
232,Talaya,RU,2020-02-22 17:59:10,61.38,152.75,-17.52,90,80,0.45,broken clouds,0.0,0.0
233,Saint-Pierre,RE,2020-02-22 17:55:34,-21.34,55.48,78.8,69,47,6.93,scattered clouds,0.0,0.0
234,Axim,GH,2020-02-22 17:59:10,4.87,-2.24,81.86,81,100,7.83,light rain,0.25,0.0
235,San Andres,CO,2020-02-22 17:56:00,12.58,-81.7,86.0,62,20,11.41,few clouds,0.0,0.0
236,Codrington,AU,2020-02-22 17:59:10,-38.27,141.97,60.3,76,0,9.37,clear sky,0.0,0.0
237,Hambantota,LK,2020-02-22 17:59:11,6.12,81.12,77.0,100,20,10.29,few clouds,0.0,0.0
238,Cururupu,BR,2020-02-22 17:59:11,-1.83,-44.87,81.93,85,96,2.24,moderate rain,5.88,0.0
239,Kruisfontein,ZA,2020-02-22 17:59:11,-34.0,24.73,65.61,91,44,16.62,light rain,0.81,0.0
240,Husavik,IS,2020-02-22 17:59:11,66.04,-17.34,24.78,79,100,3.71,light snow,0.0,0.25
241,Mareeba,AU,2020-02-22 17:59:11,-17.0,145.43,77.0,100,75,2.24,moderate rain,0.0,0.0
242,Ahipara,NZ,2020-02-22 17:59:12,-35.17,173.17,62.01,100,22,20.6,few clouds,0.0,0.0
243,Preobrazheniye,RU,2020-02-22 17:59:12,42.9,133.91,18.05,75,11,8.88,few clouds,0.0,0.0
244,Ngunguru,NZ,2020-02-22 17:59:12,-35.62,174.5,60.01,93,29,5.01,scattered clouds,0.0,0.0
245,Muros,ES,2020-02-22 17:59:12,42.78,-9.06,62.6,55,0,4.7,clear sky,0.0,0.0
246,Fortuna,US,2020-02-22 17:59:12,40.6,-124.16,50.0,93,90,4.5,overcast clouds,0.0,0.0
247,Uige,AO,2020-02-22 17:59:13,-7.61,15.06,72.46,92,91,2.73,moderate rain,3.94,0.0
248,Severo-Kurilsk,RU,2020-02-22 17:59:13,50.68,156.12,11.95,89,84,5.32,broken clouds,0.0,0.0
249,Sioux Lookout,CA,2020-02-22 17:59:13,50.1,-91.92,32.0,88,20,8.05,few clouds,0.0,0.0
250,Nikolskoye,RU,2020-02-22 17:59:13,59.7,30.79,36.0,93,90,15.66,light intensity shower rain,0.0,0.0
251,Saravena,CO,2020-02-22 17:59:13,6.95,-71.88,94.05,37,100,2.55,overcast clouds,0.0,0.0
252,Bejar,ES,2020-02-22 17:59:14,40.39,-5.76,60.8,44,0,5.82,clear sky,0.0,0.0
253,Tolaga Bay,NZ,2020-02-22 17:59:14,-38.37,178.3,66.49,80,100,19.95,light rain,0.19,0.0
254,Itamaraca,BR,2020-02-22 17:59:14,-7.75,-34.83,87.8,70,40,9.17,scattered clouds,0.0,0.0
255,Batagay-Alyta,RU,2020-02-22 17:59:14,67.8,130.41,-19.34,81,9,2.39,clear sky,0.0,0.0
256,Clemencia,CO,2020-02-22 17:59:14,10.57,-75.33,87.8,66,40,13.87,scattered clouds,0.0,0.0
257,Mathathane,BW,2020-02-22 17:59:14,-22.27,28.75,88.56,41,50,5.26,scattered clouds,0.0,0.0
258,Souillac,MU,2020-02-22 17:59:15,-20.52,57.52,78.8,83,40,3.36,scattered clouds,0.0,0.0
259,Yatou,CN,2020-02-22 17:59:15,37.15,122.38,34.12,50,0,6.71,clear sky,0.0,0.0
260,Vao,NC,2020-02-22 17:59:15,-22.67,167.48,78.62,73,1,12.88,clear sky,0.0,0.0
261,Auki,SB,2020-02-22 17:59:15,-8.77,160.7,82.69,77,20,3.56,few clouds,0.0,0.0
262,Faanui,PF,2020-02-22 17:59:16,-16.48,-151.75,81.46,77,3,10.83,light rain,0.87,0.0
263,Talnakh,RU,2020-02-22 17:59:16,69.49,88.4,8.6,92,40,20.13,light snow,0.0,0.0
264,Bengkulu,ID,2020-02-22 17:59:16,-3.8,102.27,74.3,89,84,3.96,broken clouds,0.0,0.0
265,Aripuana,BR,2020-02-22 17:59:16,-9.17,-60.63,75.42,97,100,1.66,light rain,2.06,0.0
266,Alugan,PH,2020-02-22 17:59:16,12.22,125.48,77.27,82,16,11.63,light rain,0.19,0.0
267,Norman Wells,CA,2020-02-22 17:59:17,65.28,-126.83,5.0,84,75,4.7,light snow,0.0,0.0
268,Zhoucheng,CN,2020-02-22 17:59:17,35.91,116.31,38.39,34,0,6.42,clear sky,0.0,0.0
269,Puerto Escondido,MX,2020-02-22 17:59:17,15.85,-97.07,84.2,70,5,9.17,clear sky,0.0,0.0
270,Bubaque,GW,2020-02-22 17:59:17,11.28,-15.83,78.76,70,32,18.59,scattered clouds,0.0,0.0
271,Nome,US,2020-02-22 17:59:17,64.5,-165.41,-25.6,82,1,3.36,clear sky,0.0,0.0
272,Havre-Saint-Pierre,CA,2020-02-22 17:59:18,50.23,-63.6,26.6,73,75,17.22,broken clouds,0.0,0.0
273,Aranos,NA,2020-02-22 17:59:18,-24.13,19.12,79.11,54,52,10.92,broken clouds,0.0,0.0
274,Chernyshevskiy,RU,2020-02-22 17:59:18,63.01,112.47,1.72,97,100,1.14,light snow,0.0,0.19
275,Pochutla,MX,2020-02-22 17:59:18,15.74,-96.47,89.6,55,20,9.93,few clouds,0.0,0.0
276,Kailahun,SL,2020-02-22 17:59:05,8.28,-10.57,91.15,43,84,2.62,broken clouds,0.0,0.0
277,Alofi,NU,2020-02-22 17:59:19,-19.06,-169.92,80.02,89,100,11.12,overcast clouds,0.0,0.0
278,Mwinilunga,ZM,2020-02-22 17:59:19,-11.74,24.43,68.56,88,100,2.8,light rain,1.44,0.0
279,Anito,PH,2020-02-22 17:59:19,12.45,125.29,79.36,78,0,17.09,light rain,0.56,0.0
280,Agaro,ET,2020-02-22 17:59:19,7.85,36.65,71.37,39,53,3.29,broken clouds,0.0,0.0
281,Arlit,NE,2020-02-22 17:59:19,18.74,7.39,80.26,10,100,16.22,overcast clouds,0.0,0.0
282,Provideniya,RU,2020-02-22 17:59:20,64.38,-173.3,-19.34,93,48,3.15,scattered clouds,0.0,0.0
283,Constitucion,CL,2020-02-22 17:59:20,-35.33,-72.42,65.26,64,12,8.59,few clouds,0.0,0.0
284,Puerto Narino,CO,2020-02-22 17:59:20,-3.77,-70.38,82.4,94,90,5.82,overcast clouds,0.0,0.0
285,Dharchula,IN,2020-02-22 17:59:20,29.85,80.53,31.75,45,7,9.15,clear sky,0.0,0.0
286,Karaton,ID,2020-02-22 17:59:20,-6.34,106.1,82.4,83,75,8.05,thunderstorm,0.0,0.0
287,Cayenne,GF,2020-02-22 17:56:38,4.93,-52.33,84.2,70,75,12.75,broken clouds,0.0,0.0
288,Alterosa,BR,2020-02-22 17:58:31,-21.25,-46.14,78.84,79,36,6.11,light rain,2.44,0.0
289,Birao,CF,2020-02-22 17:58:59,10.28,22.79,82.15,11,9,8.37,clear sky,0.0,0.0
290,Tezu,IN,2020-02-22 17:59:21,27.92,96.17,66.61,37,100,3.85,overcast clouds,0.0,0.0
291,Moerai,PF,2020-02-22 17:58:11,-22.43,-151.33,80.64,65,100,8.59,overcast clouds,0.0,0.0
292,Eureka,US,2020-02-22 17:55:48,40.8,-124.16,48.99,93,90,1.43,overcast clouds,0.0,0.0
293,Ocos,GT,2020-02-22 17:59:22,14.51,-92.19,91.4,38,20,6.93,few clouds,0.0,0.0
294,Fort Nelson,CA,2020-02-22 17:59:22,58.81,-122.7,26.6,53,20,13.87,few clouds,0.0,0.0
295,Belaya Gora,RU,2020-02-22 17:59:22,68.53,146.42,-14.64,98,94,1.28,overcast clouds,0.0,0.0
296,Yingkou,CN,2020-02-22 17:58:08,40.66,122.23,30.18,69,0,9.42,clear sky,0.0,0.0
297,Coquimbo,CL,2020-02-22 17:59:23,-29.95,-71.34,68.0,68,20,10.29,few clouds,0.0,0.0
298,Krasnoselkup,RU,2020-02-22 17:59:23,65.7,82.47,4.32,87,72,13.47,broken clouds,0.0,0.0
299,Shubarkuduk,KZ,2020-02-22 17:59:23,49.14,56.49,18.45,92,99,7.67,overcast clouds,0.0,0.0
300,Stavern,NO,2020-02-22 17:59:24,59.0,10.03,39.2,74,20,19.46,few clouds,0.0,0.0
301,Taltal,CL,2020-02-22 17:59:24,-25.4,-70.48,70.47,62,0,10.22,clear sky,0.0,0.0
302,Ambanja,MG,2020-02-22 17:59:24,-13.68,48.45,80.96,76,95,1.74,light rain,0.75,0.0
303,Port Shepstone,ZA,2020-02-22 17:59:24,-30.74,30.45,72.79,93,95,11.99,light rain,0.5,0.0
304,Mansa,IN,2020-02-22 17:55:59,29.98,75.38,57.51,79,0,2.21,clear sky,0.0,0.0
305,Luxor,EG,2020-02-22 17:59:20,25.7,32.64,64.4,45,0,3.36,clear sky,0.0,0.0
306,Marrakesh,MA,2020-02-22 17:59:25,31.63,-8.01,80.6,13,0,3.36,clear sky,0.0,0.0
307,Camabatela,AO,2020-02-22 17:59:25,-8.19,15.38,68.9,89,90,3.62,light rain,1.69,0.0
308,Hirado,JP,2020-02-22 17:59:25,33.36,129.55,51.01,57,20,13.87,few clouds,0.0,0.0
309,Ancud,CL,2020-02-22 17:59:25,-41.87,-73.82,82.4,21,0,5.82,clear sky,0.0,0.0
310,Alvorada,BR,2020-02-22 17:59:26,-12.48,-49.12,83.71,77,100,2.91,light rain,2.94,0.0
311,Upernavik,GL,2020-02-22 17:59:26,72.79,-56.15,-17.97,97,22,0.36,few clouds,0.0,0.0
312,Mnogovershinnyy,RU,2020-02-22 17:59:26,53.94,139.92,-0.45,79,1,2.46,clear sky,0.0,0.0
313,Seoul,KR,2020-02-22 17:59:26,37.57,126.98,32.0,43,1,2.24,clear sky,0.0,0.0
314,Mogok,MM,2020-02-22 17:59:26,22.92,96.5,69.87,35,78,2.55,broken clouds,0.0,0.0
315,Boulsa,BF,2020-02-22 17:59:27,12.67,-0.58,91.85,9,97,9.86,overcast clouds,0.0,0.0
316,Bonavista,CA,2020-02-22 17:59:27,48.65,-53.11,25.0,72,9,11.99,clear sky,0.0,0.0
317,Port Hedland,AU,2020-02-22 17:59:27,-20.32,118.57,78.8,88,30,5.82,scattered clouds,0.0,0.0
318,Hualmay,PE,2020-02-22 17:59:27,-11.1,-77.61,82.35,50,94,9.78,overcast clouds,0.0,0.0
319,Solnechnyy,RU,2020-02-22 17:59:07,50.72,136.63,7.47,75,95,5.95,overcast clouds,0.0,0.0
320,Hillsboro,US,2020-02-22 17:59:28,45.52,-122.99,45.0,93,90,1.32,overcast clouds,0.0,0.0
321,Hovd,MN,2020-02-22 17:59:28,48.01,91.64,18.55,65,100,2.8,overcast clouds,0.0,0.0
322,Umm Kaddadah,SD,2020-02-22 17:59:28,13.6,26.69,73.8,11,16,14.79,few clouds,0.0,0.0
323,Vanimo,PG,2020-02-22 17:59:28,-2.67,141.3,81.5,83,67,14.76,light rain,1.81,0.0
324,Roald,NO,2020-02-22 17:59:28,62.58,6.13,41.0,75,40,23.04,scattered clouds,0.0,0.0
325,Narsaq,GL,2020-02-22 17:59:28,60.92,-46.05,19.4,34,75,10.29,broken clouds,0.0,0.0
326,Ferrol,ES,2020-02-22 17:59:29,43.48,-8.24,55.99,81,0,6.93,clear sky,0.0,0.0
327,Bay City,US,2020-02-22 17:57:39,43.59,-83.89,42.01,69,1,13.87,clear sky,0.0,0.0
328,Ciudad Bolivar,VE,2020-02-22 17:59:29,8.12,-63.55,93.79,38,95,7.31,overcast clouds,0.0,0.0
329,Itoman,JP,2020-02-22 17:59:29,26.12,127.67,64.4,68,75,20.8,broken clouds,0.0,0.0
330,Mantua,IT,2020-02-22 17:59:29,45.17,10.78,55.4,62,0,3.36,clear sky,0.0,0.0
331,Ures,MX,2020-02-22 17:59:30,29.43,-110.4,80.01,43,100,4.0,overcast clouds,0.0,0.0
332,Half Moon Bay,US,2020-02-22 17:56:51,37.46,-122.43,64.0,76,20,11.41,few clouds,0.0,0.0
333,Hasaki,JP,2020-02-22 17:59:30,35.73,140.83,50.0,53,75,11.41,broken clouds,0.0,0.0
334,San Policarpo,PH,2020-02-22 17:59:30,12.18,125.51,77.27,82,16,11.63,light rain,0.19,0.0
335,Adrar,MR,2020-02-22 17:59:30,20.5,-10.07,89.51,8,96,6.87,overcast clouds,0.0,0.0
336,Tabou,CI,2020-02-22 17:59:30,4.42,-7.35,83.84,77,86,5.84,light rain,0.81,0.0
337,Aksu,CN,2020-02-22 17:59:31,41.12,80.26,36.32,38,57,5.46,broken clouds,0.0,0.0
338,Mahbubabad,IN,2020-02-22 17:59:31,17.62,80.02,71.06,74,0,8.39,clear sky,0.0,0.0
339,Matucana,PE,2020-02-22 17:59:31,-11.85,-76.4,55.6,92,92,7.58,light rain,0.38,0.0
340,Padang,ID,2020-02-22 17:59:31,-0.95,100.35,70.36,85,4,6.55,clear sky,0.0,0.0
341,Comodoro Rivadavia,AR,2020-02-22 17:59:31,-45.87,-67.5,84.2,25,0,16.11,clear sky,0.0,0.0
342,Houma,US,2020-02-22 17:59:11,29.6,-90.72,59.0,62,1,9.17,clear sky,0.0,0.0
343,Irece,BR,2020-02-22 17:59:32,-11.3,-41.86,87.04,47,52,1.16,light rain,0.5,0.0
344,Neiafu,TO,2020-02-22 17:59:32,-18.65,-173.98,77.0,94,40,11.05,scattered clouds,0.0,0.0
345,Hofn,IS,2020-02-22 17:59:32,64.25,-15.21,35.67,57,100,11.39,overcast clouds,0.0,0.0
346,Xiamen,CN,2020-02-22 17:59:32,24.48,118.08,59.0,67,0,6.71,clear sky,0.0,0.0
347,Salina,US,2020-02-22 17:59:32,38.84,-97.61,50.0,52,1,12.75,clear sky,0.0,0.0
348,Tautira,PF,2020-02-22 17:59:33,-17.73,-149.15,82.4,74,20,2.24,few clouds,0.0,0.0
349,Mitsamiouli,KM,2020-02-22 17:57:04,-11.38,43.28,80.6,78,75,5.82,broken clouds,0.0,0.0
350,Komsomolskiy,UZ,2020-02-22 17:59:33,40.43,71.72,44.6,65,96,6.93,mist,0.0,0.0
351,Bijie,CN,2020-02-22 17:59:33,27.31,105.29,45.03,96,100,4.03,overcast clouds,0.0,0.0
352,Dinguiraye,GN,2020-02-22 17:59:33,11.3,-10.72,97.92,20,83,6.29,broken clouds,0.0,0.0
353,Taoudenni,ML,2020-02-22 17:59:34,22.68,-3.98,86.85,7,61,6.38,broken clouds,0.0,0.0
354,Eldorado,BR,2020-02-22 17:59:34,-23.79,-54.28,82.27,30,23,9.17,few clouds,0.0,0.0
355,Gat,IL,2020-02-22 17:59:34,31.61,34.76,57.2,82,37,5.82,scattered clouds,0.0,0.0
356,Neuquen,AR,2020-02-22 17:59:34,-38.95,-68.06,78.8,24,0,10.29,clear sky,0.0,0.0
357,Tubuala,PA,2020-02-22 17:59:34,9.52,-79.03,91.0,49,40,14.99,scattered clouds,0.0,0.0
358,Merauke,ID,2020-02-22 17:55:06,-8.47,140.33,76.51,94,100,9.33,overcast clouds,0.0,0.0
359,Saquarema,BR,2020-02-22 17:59:35,-22.92,-42.51,78.8,74,75,8.05,broken clouds,0.0,0.0
360,Tocache,PE,2020-02-22 17:59:35,-8.18,-76.51,76.8,90,100,0.22,moderate rain,6.06,0.0
361,Ivanava,BY,2020-02-22 17:59:35,52.15,25.54,41.54,58,92,19.57,overcast clouds,0.0,0.0
362,Agadez,NE,2020-02-22 17:57:40,19.75,10.25,75.15,13,83,12.01,broken clouds,0.0,0.0
363,Mindelo,CV,2020-02-22 17:59:36,16.89,-24.98,75.2,57,75,32.21,broken clouds,0.0,0.0
364,Bay Saint Louis,US,2020-02-22 17:59:36,30.31,-89.33,59.0,40,1,5.82,clear sky,0.0,0.0
365,Saint-Augustin,CA,2020-02-22 17:59:36,51.23,-58.65,20.05,83,100,22.84,overcast clouds,0.0,0.0
366,Voznesenye,RU,2020-02-22 17:59:36,61.01,35.48,34.02,88,100,19.1,light snow,0.0,0.56
367,Matara,LK,2020-02-22 17:59:36,5.95,80.54,79.68,72,74,14.23,broken clouds,0.0,0.0
368,Tayoltita,MX,2020-02-22 17:59:36,24.08,-105.93,82.67,26,100,3.98,overcast clouds,0.0,0.0
369,Port Huron,US,2020-02-22 17:56:00,42.97,-82.42,44.01,44,1,8.05,clear sky,0.0,0.0
370,Moctezuma,MX,2020-02-22 17:59:37,29.8,-109.67,67.48,37,94,2.51,overcast clouds,0.0,0.0
371,Victoria,HK,2020-02-22 17:58:03,22.29,114.16,66.99,77,20,18.34,few clouds,0.0,0.0
372,Blagodatnoye,RU,2020-02-22 17:59:37,45.4,42.59,33.8,81,90,11.18,overcast clouds,0.0,0.0
373,Ankazobe,MG,2020-02-22 17:59:37,-18.32,47.12,66.2,93,75,10.29,moderate rain,0.0,0.0
374,Kloulklubed,PW,2020-02-22 17:59:00,7.04,134.26,78.8,88,90,8.05,overcast clouds,0.0,0.0
375,Severobaykalsk,RU,2020-02-22 17:59:38,55.65,109.32,15.57,91,100,2.55,light snow,0.0,0.37
376,San Patricio,MX,2020-02-22 17:59:38,19.22,-104.7,82.4,78,20,7.52,few clouds,0.0,0.0
377,Ayan,RU,2020-02-22 17:59:38,56.45,138.17,-0.04,69,19,5.1,few clouds,0.0,0.0
378,Nago,JP,2020-02-22 17:59:38,26.59,127.98,64.4,68,75,20.8,broken clouds,0.0,0.0
379,Kontagora,NG,2020-02-22 17:59:38,10.4,5.47,92.73,13,9,5.21,clear sky,0.0,0.0
380,Giraltovce,SK,2020-02-22 17:59:39,49.11,21.52,42.8,56,95,12.75,overcast clouds,0.0,0.0
381,Tacna,PE,2020-02-22 17:59:39,-18.01,-70.25,82.4,58,20,13.87,few clouds,0.0,0.0
382,Zhezkazgan,KZ,2020-02-22 17:59:39,47.8,67.71,16.75,93,100,7.85,overcast clouds,0.0,0.0
383,Hay River,CA,2020-02-22 17:54:55,60.82,-115.8,1.4,77,75,4.7,broken clouds,0.0,0.0
384,Kimbe,PG,2020-02-22 17:59:39,-5.55,150.14,75.2,93,87,3.11,light rain,0.44,0.0
385,Hastings,GB,2020-02-22 17:59:40,50.86,0.57,52.0,87,20,24.16,few clouds,0.0,0.0
386,Kunming,CN,2020-02-22 17:59:40,25.04,102.72,51.8,87,46,13.42,scattered clouds,0.0,0.0
387,Dandong,CN,2020-02-22 17:56:47,40.13,124.39,27.77,67,0,2.33,clear sky,0.0,0.0
388,Bougouni,ML,2020-02-22 17:59:40,11.42,-7.48,98.69,9,22,4.29,few clouds,0.0,0.0
389,Pop,UZ,2020-02-22 17:59:40,40.87,71.11,44.6,65,11,6.93,mist,0.0,0.0
390,Pingxiang,CN,2020-02-22 17:59:41,27.62,113.85,48.81,89,19,2.93,few clouds,0.0,0.0
391,Mahon,ES,2020-02-22 17:59:41,39.89,4.27,53.6,87,20,8.05,few clouds,0.0,0.0
392,Bonnyville,CA,2020-02-22 17:59:41,54.27,-110.73,32.0,84,75,6.93,shower rain,0.0,0.0
393,Berbera,SO,2020-02-22 17:59:41,10.44,45.01,78.53,78,44,14.12,scattered clouds,0.0,0.0
394,Conakry,GN,2020-02-22 17:59:41,9.54,-13.68,91.4,38,5,6.93,clear sky,0.0,0.0
395,Mayo,US,2020-02-22 17:59:42,38.89,-76.51,52.0,22,1,3.36,clear sky,0.0,0.0
396,Serenje,ZM,2020-02-22 17:59:42,-13.23,30.24,69.12,95,70,3.76,light rain,0.25,0.0
397,Pandan,PH,2020-02-22 17:59:42,14.05,124.17,77.88,81,15,19.42,light rain,0.63,0.0
398,Tuatapere,NZ,2020-02-22 17:57:25,-46.13,167.68,51.01,79,81,5.01,broken clouds,0.0,0.0
399,Lorengau,PG,2020-02-22 17:59:42,-2.02,147.27,82.36,74,1,7.67,clear sky,0.0,0.0
400,Kavaratti,IN,2020-02-22 17:59:43,10.57,72.64,82.38,74,100,6.11,overcast clouds,0.0,0.0
401,Ketchikan,US,2020-02-22 17:59:43,55.34,-131.65,35.6,93,40,6.93,light rain,0.0,0.0
402,Pinega,RU,2020-02-22 17:59:43,64.7,43.39,32.41,85,100,16.87,overcast clouds,0.0,0.0
403,Boa Vista,BR,2020-02-22 17:59:43,2.82,-60.67,95.0,32,75,8.05,broken clouds,0.0,0.0
404,Westport,US,2020-02-22 17:59:31,41.14,-73.36,46.99,38,1,14.99,clear sky,0.0,0.0
405,Deputatskiy,RU,2020-02-22 17:59:44,69.3,139.9,-7.58,99,100,0.58,light snow,0.0,0.13
406,Mountain Home,US,2020-02-22 17:59:44,43.13,-115.69,36.0,37,1,13.87,clear sky,0.0,0.0
407,Ulladulla,AU,2020-02-22 17:59:44,-35.35,150.47,62.6,100,90,13.67,overcast clouds,0.0,0.0
408,Mount Gambier,AU,2020-02-22 17:57:11,-37.83,140.77,51.8,93,0,6.93,clear sky,0.0,0.0
409,Henties Bay,NA,2020-02-22 17:59:44,-22.12,14.28,66.0,86,37,5.01,scattered clouds,0.0,0.0
410,Juegang,CN,2020-02-22 17:59:45,32.32,121.19,43.0,74,0,7.85,clear sky,0.0,0.0
411,Sao Joao Da Barra,BR,2020-02-22 17:59:45,-21.64,-41.05,82.4,69,75,11.41,broken clouds,0.0,0.0
412,Polson,US,2020-02-22 17:58:55,47.69,-114.16,43.0,85,75,6.91,broken clouds,0.0,0.0
413,Banikoara,BJ,2020-02-22 17:59:45,11.3,2.44,91.65,11,0,5.88,clear sky,0.0,0.0
414,Florianopolis,BR,2020-02-22 17:59:06,-27.61,-48.5,82.0,36,20,17.22,few clouds,0.0,0.0
415,Pangnirtung,CA,2020-02-22 17:59:46,66.15,-65.71,-32.8,59,20,2.73,few clouds,0.0,0.0
416,Iqaluit,CA,2020-02-22 17:59:46,63.75,-68.51,-25.01,60,20,12.75,few clouds,0.0,0.0
417,Leh,IN,2020-02-22 17:55:34,34.17,77.58,-3.21,56,0,2.98,clear sky,0.0,0.0
418,Mocorito,MX,2020-02-22 17:59:46,25.48,-107.92,86.09,33,90,2.8,overcast clouds,0.0,0.0
419,Vung Tau,VN,2020-02-22 17:59:46,10.35,107.08,73.26,75,0,7.87,clear sky,0.0,0.0
420,Ust-Koksa,RU,2020-02-22 17:57:38,50.27,85.61,21.42,96,100,7.05,light snow,0.0,0.81
421,Otteveny,HU,2020-02-22 17:59:47,47.72,17.48,46.99,45,88,8.05,overcast clouds,0.0,0.0
422,Lerwick,GB,2020-02-22 17:59:47,60.15,-1.15,42.8,81,99,48.32,light rain,1.44,0.0
423,Copala,MX,2020-02-22 17:59:47,16.65,-98.98,80.89,63,0,8.01,clear sky,0.0,0.0
424,Fandriana,MG,2020-02-22 17:59:47,-20.23,47.38,61.25,98,100,1.95,heavy intensity rain,26.31,0.0
425,Haapiti,PF,2020-02-22 17:56:13,-17.57,-149.87,82.4,74,20,2.24,few clouds,0.0,0.0
426,Stornoway,GB,2020-02-22 17:59:48,58.21,-6.39,42.01,75,98,27.51,light snow,0.0,0.56
427,Bud,US,2020-02-22 17:59:48,39.45,-86.18,46.0,35,1,9.17,clear sky,0.0,0.0
428,Abu Samrah,SY,2020-02-22 17:59:39,35.3,37.18,50.85,82,33,8.68,light rain,0.31,0.0
429,Farmington,US,2020-02-22 17:59:48,36.73,-108.22,48.0,48,20,4.7,few clouds,0.0,0.0
430,Boissevain,CA,2020-02-22 17:59:49,49.23,-100.06,39.2,51,1,5.82,clear sky,0.0,0.0
431,Biltine,TD,2020-02-22 17:59:49,14.53,20.92,78.62,8,0,9.6,clear sky,0.0,0.0
432,Mizdah,LY,2020-02-22 17:59:49,31.45,12.98,51.44,65,0,14.23,clear sky,0.0,0.0
433,Miandrivazo,MG,2020-02-22 17:59:49,-19.52,45.47,76.42,90,100,1.63,light rain,0.44,0.0
434,Chapais,CA,2020-02-22 17:59:49,49.78,-74.85,28.4,68,75,13.87,broken clouds,0.0,0.0
435,Thai Binh,VN,2020-02-22 17:59:50,20.45,106.33,64.4,93,0,1.12,clear sky,0.0,0.0
436,Dodge City,US,2020-02-22 17:59:50,37.75,-100.02,48.99,65,1,14.99,clear sky,0.0,0.0
437,Sabaudia,IT,2020-02-22 17:59:50,41.3,13.03,55.0,76,0,3.36,clear sky,0.0,0.0
438,Kaniama,CD,2020-02-22 17:59:50,-7.57,24.18,72.55,90,99,0.89,light rain,2.0,0.0
439,Atambua,ID,2020-02-22 17:59:50,-9.11,124.89,75.65,91,85,2.95,overcast clouds,0.0,0.0
440,Mangaldai,IN,2020-02-22 17:59:51,26.43,92.03,66.2,88,75,5.28,mist,0.0,0.0
441,Hervey Bay,AU,2020-02-22 17:58:46,-25.3,152.85,79.0,73,40,9.17,scattered clouds,0.0,0.0
442,Mega,ET,2020-02-22 17:59:51,4.05,38.3,76.32,41,63,13.73,broken clouds,0.0,0.0
443,Ballina,AU,2020-02-22 17:59:51,-28.87,153.57,73.4,78,94,8.05,light rain,0.38,0.0
444,Besikduzu,TR,2020-02-22 17:59:52,41.05,39.23,46.4,87,75,5.82,light rain,0.0,0.0
445,Crepaja,RS,2020-02-22 17:59:52,45.01,20.64,46.4,56,0,2.24,clear sky,0.0,0.0
446,Hirna,ET,2020-02-22 17:59:52,9.22,41.1,66.27,61,17,7.07,few clouds,0.0,0.0
447,Aykhal,RU,2020-02-22 17:59:52,66.0,111.5,-5.8,76,75,4.47,light snow,0.0,0.0
448,Elizabeth City,US,2020-02-22 17:57:20,36.29,-76.25,48.99,36,1,1.99,clear sky,0.0,0.0
449,Caravelas,BR,2020-02-22 17:59:53,-17.71,-39.25,81.88,84,55,16.02,broken clouds,0.0,0.0
450,Ghanzi,BW,2020-02-22 17:59:53,-21.57,21.78,78.26,50,49,2.89,scattered clouds,0.0,0.0
451,Yumen,CN,2020-02-22 17:59:53,40.28,97.2,27.61,42,0,3.62,clear sky,0.0,0.0
452,Jawa,JO,2020-02-22 17:59:53,31.85,35.94,46.4,87,40,3.36,scattered clouds,0.0,0.0
453,Bhor,IN,2020-02-22 17:59:53,18.17,73.85,73.31,40,0,4.68,clear sky,0.0,0.0
454,Apt,FR,2020-02-22 17:59:54,43.88,5.4,59.0,71,0,4.7,clear sky,0.0,0.0
455,Aklavik,CA,2020-02-22 17:59:54,68.22,-135.01,-2.2,83,90,3.36,light snow,0.0,0.0
456,Tooele,US,2020-02-22 17:59:54,40.53,-112.3,44.01,64,90,5.82,overcast clouds,0.0,0.0
457,Ivanivka,UA,2020-02-22 17:59:54,46.72,34.55,36.91,80,91,6.33,overcast clouds,0.0,0.0
458,Isangel,VU,2020-02-22 17:59:54,-19.55,169.27,78.15,80,42,14.54,scattered clouds,0.0,0.0
459,Nargana,PA,2020-02-22 17:59:55,9.44,-78.59,79.57,79,67,15.66,light rain,0.88,0.0
460,Alice Springs,AU,2020-02-22 17:59:55,-23.7,133.88,64.4,25,0,3.36,clear sky,0.0,0.0
461,Ostrovnoy,RU,2020-02-22 17:59:55,68.05,39.51,33.94,95,90,35.1,light snow,0.0,0.5
462,Nhulunbuy,AU,2020-02-22 17:56:52,-12.23,136.77,80.6,88,75,10.29,broken clouds,0.0,0.0
463,Kapoeta,SS,2020-02-22 17:59:55,4.77,33.59,92.61,30,44,5.99,scattered clouds,0.0,0.0
464,Puerto Montt,CL,2020-02-22 17:59:56,-41.47,-72.94,80.6,30,0,4.7,clear sky,0.0,0.0
465,Eregli,TR,2020-02-22 17:59:56,37.51,34.05,38.01,81,99,2.19,overcast clouds,0.0,0.0
466,Van Buren,US,2020-02-22 17:59:56,35.44,-94.35,51.01,36,1,5.82,clear sky,0.0,0.0
467,Scottsbluff,US,2020-02-22 17:59:56,41.87,-103.67,54.0,27,1,12.75,clear sky,0.0,0.0
468,Nynashamn,SE,2020-02-22 17:59:56,58.9,17.95,44.01,60,86,27.51,overcast clouds,0.0,0.0
469,Kozhva,RU,2020-02-22 17:59:56,65.11,57.05,30.94,87,100,12.95,light snow,0.0,0.31
470,The Valley,AI,2020-02-22 17:59:57,18.22,-63.06,84.2,51,20,5.82,few clouds,0.0,0.0
471,Quatre Cocos,MU,2020-02-22 17:59:57,-20.21,57.76,78.8,83,40,3.36,scattered clouds,0.0,0.0
472,Talcahuano,CL,2020-02-22 17:59:57,-36.72,-73.12,66.2,63,40,11.41,scattered clouds,0.0,0.0
473,Srednekolymsk,RU,2020-02-22 17:59:57,67.45,153.68,-26.25,100,97,1.97,overcast clouds,0.0,0.0
474,Leningradskiy,RU,2020-02-22 17:57:00,69.38,178.42,-12.39,96,100,9.48,light snow,0.0,0.13
475,Labuhan,ID,2020-02-22 17:59:57,-6.88,112.21,75.31,92,78,2.26,light rain,0.69,0.0
476,Daru,PG,2020-02-22 17:59:58,-9.08,143.21,76.75,90,99,6.26,overcast clouds,0.0,0.0
477,Felanitx,ES,2020-02-22 17:59:58,39.47,3.15,59.0,77,20,3.36,few clouds,0.0,0.0
478,Seara,PT,2020-02-22 17:59:58,41.18,-7.8,64.0,67,0,1.99,clear sky,0.0,0.0
479,Verkhnyaya Inta,RU,2020-02-22 17:59:58,65.98,60.31,27.81,86,55,16.78,broken clouds,0.0,0.0
480,Atchison,US,2020-02-22 17:57:30,39.56,-95.12,48.0,45,1,14.99,clear sky,0.0,0.0
481,Palmer,US,2020-02-22 17:58:20,42.16,-72.33,45.0,30,20,16.11,few clouds,0.0,0.0
482,Timra,SE,2020-02-22 17:59:59,62.49,17.33,39.2,73,100,19.46,light snow,0.0,1.06
483,Ca Mau,VN,2020-02-22 17:58:31,9.18,105.15,77.45,68,0,12.26,clear sky,0.0,0.0
484,Mogadishu,SO,2020-02-22 17:59:59,2.04,45.34,82.36,82,23,23.96,few clouds,0.0,0.0
485,Hit,IQ,2020-02-22 18:00:00,33.64,42.83,62.35,49,21,13.8,few clouds,0.0,0.0
486,Anadyr,RU,2020-02-22 18:00:00,64.75,177.48,-13.0,69,0,4.47,clear sky,0.0,0.0
487,Tomari,RU,2020-02-22 18:00:00,47.77,142.07,26.71,86,100,24.7,light snow,0.0,0.19
488,Avanigadda,IN,2020-02-22 18:00:00,16.02,80.92,71.31,89,0,4.34,clear sky,0.0,0.0
489,Erzin,TR,2020-02-22 18:00:00,36.96,36.2,55.4,93,75,4.7,broken clouds,0.0,0.0
490,Harper,LR,2020-02-22 18:00:01,4.38,-7.72,83.84,77,86,5.84,light rain,0.81,0.0
491,Lufilufi,WS,2020-02-22 18:00:01,-13.87,-171.6,82.04,78,100,29.08,light rain,1.31,0.0
492,Mudkhed,IN,2020-02-22 18:00:01,19.17,77.52,76.6,40,0,8.34,clear sky,0.0,0.0
493,Nsanje,MW,2020-02-22 18:00:01,-16.92,35.26,78.15,84,65,4.85,broken clouds,0.0,0.0
494,Narasannapeta,IN,2020-02-22 18:00:02,18.42,84.05,68.56,72,0,3.91,clear sky,0.0,0.0
495,Santa Ana,US,2020-02-22 17:58:09,33.75,-117.87,64.0,66,75,11.41,moderate rain,0.0,0.0
496,Birobidzhan,RU,2020-02-22 18:00:02,48.8,132.95,5.18,81,21,3.62,few clouds,0.0,0.0
497,Pijijiapan,MX,2020-02-22 18:00:03,15.7,-93.23,98.37,26,0,1.7,clear sky,0.0,0.0
498,Hohhot,CN,2020-02-22 18:00:03,40.81,111.65,15.8,66,0,2.24,clear sky,0.0,0.0
499,Luba,GQ,2020-02-22 18:00:03,3.46,8.55,86.0,79,20,11.41,few clouds,0.0,0.0
500,Los Llanos De Aridane,ES,2020-02-22 18:00:03,28.66,-17.92,68.0,68,20,12.75,few clouds,0.0,0.0
501,Ponta Delgada,PT,2020-02-22 18:00:04,37.73,-25.67,60.8,67,20,9.17,few clouds,0.0,0.0
502,Tadpatri,IN,2020-02-22 18:00:04,14.92,78.02,73.26,71,0,9.69,clear sky,0.0,0.0
503,Pasni,PK,2020-02-22 18:00:04,25.26,63.47,70.79,47,20,1.41,few clouds,0.0,0.0
504,Foz,ES,2020-02-22 18:00:04,43.57,-7.25,54.0,1,0,1.99,clear sky,0.0,0.0
505,Liwonde,MW,2020-02-22 18:00:05,-15.05,35.2,73.69,93,70,2.17,light rain,1.0,0.0
506,Sur,OM,2020-02-22 18:00:05,22.57,59.53,70.09,77,8,2.89,clear sky,0.0,0.0
507,Kijang,KR,2020-02-22 18:00:05,35.24,129.21,37.4,47,0,6.93,clear sky,0.0,0.0
508,General Roca,AR,2020-02-22 18:00:05,-39.03,-67.58,78.8,24,0,10.29,clear sky,0.0,0.0
509,Wanaka,NZ,2020-02-22 17:59:50,-44.7,169.15,43.0,81,8,1.99,clear sky,0.0,0.0
510,Natchitoches,US,2020-02-22 18:00:06,31.77,-93.13,53.01,41,1,4.34,clear sky,0.0,0.0
511,Voloshka,RU,2020-02-22 18:00:06,61.33,40.09,32.81,82,100,16.22,overcast clouds,0.0,0.0
512,Berlevag,NO,2020-02-22 18:00:06,70.86,29.09,36.61,77,55,35.3,broken clouds,0.0,0.0
513,Klaksvik,FO,2020-02-22 18:00:07,62.23,-6.59,37.4,64,83,8.05,broken clouds,0.0,0.0
514,Lakatoro,VU,2020-02-22 18:00:07,-16.1,167.42,81.19,72,19,6.89,few clouds,0.0,0.0
515,Port-Cartier,CA,2020-02-22 18:00:07,50.03,-66.87,34.0,63,75,8.05,broken clouds,0.0,0.0
516,Sapouy,BF,2020-02-22 18:00:07,11.55,-1.77,94.86,8,67,6.53,broken clouds,0.0,0.0
517,Jhelum,PK,2020-02-22 18:00:07,32.93,73.73,60.42,54,6,5.08,clear sky,0.0,0.0
518,Avdon,RU,2020-02-22 18:00:08,54.67,55.72,26.6,92,90,4.47,overcast clouds,0.0,0.0
519,Lagoa,PT,2020-02-22 18:00:08,39.05,-27.98,60.17,79,8,12.39,clear sky,0.0,0.0
520,Killybegs,IE,2020-02-22 18:00:08,54.63,-8.45,44.6,70,40,33.33,scattered clouds,0.0,0.0
521,Okahandja,NA,2020-02-22 17:58:10,-21.98,16.92,68.0,88,63,3.36,moderate rain,3.44,0.0
522,Micheweni,TZ,2020-02-22 18:00:09,-4.97,39.83,83.23,79,82,18.01,broken clouds,0.0,0.0
523,Dingle,PH,2020-02-22 18:00:09,11.0,122.67,70.88,92,3,12.06,light rain,0.19,0.0
524,Olyka,UA,2020-02-22 18:00:09,50.72,25.81,40.75,63,71,16.37,broken clouds,0.0,0.0
525,Mackay,AU,2020-02-22 18:00:09,-21.15,149.2,78.8,83,75,18.34,broken clouds,0.0,0.0
526,El Carmen,CO,2020-02-22 18:00:09,8.51,-73.45,77.32,66,100,1.14,light rain,0.62,0.0
527,Santiago Del Estero,AR,2020-02-22 18:00:10,-27.8,-64.26,78.64,26,4,7.96,clear sky,0.0,0.0
528,Heihe,CN,2020-02-22 18:00:10,50.24,127.49,1.4,70,0,2.24,clear sky,0.0,0.0
529,Waddan,LY,2020-02-22 18:00:10,29.16,16.14,58.1,43,0,9.48,clear sky,0.0,0.0
530,Miquelon,PM,2020-02-22 18:00:10,47.1,-56.38,28.4,63,75,28.86,broken clouds,0.0,0.0
531,Tigbinan,PH,2020-02-22 18:00:10,14.19,122.47,72.25,88,6,9.33,clear sky,0.0,0.0
532,Eyl,SO,2020-02-22 18:00:10,7.98,49.82,77.95,77,0,22.73,clear sky,0.0,0.0
533,Havelock,US,2020-02-22 17:59:58,34.88,-76.9,50.0,36,1,6.93,clear sky,0.0,0.0
534,Hellvik,NO,2020-02-22 18:00:11,59.92,5.78,41.0,80,75,20.8,shower rain,0.0,0.0
535,Kholtoson,RU,2020-02-22 17:59:21,50.3,103.31,8.96,88,100,2.89,overcast clouds,0.0,0.0
536,Buala,SB,2020-02-22 18:00:12,-8.14,159.59,78.84,84,20,4.16,light rain,2.88,0.0
537,Gabu,GW,2020-02-22 18:00:12,12.28,-14.22,102.2,8,30,4.38,scattered clouds,0.0,0.0
538,Waingapu,ID,2020-02-22 18:00:12,-9.66,120.26,82.85,79,87,16.11,light rain,2.31,0.0
539,Langxiang,CN,2020-02-22 18:00:12,46.95,128.88,0.54,97,81,4.41,broken clouds,0.0,0.0
540,Fare,PF,2020-02-22 18:00:12,-16.7,-151.02,81.86,76,3,11.3,light rain,0.75,0.0
541,Niceville,US,2020-02-22 18:00:13,30.52,-86.48,55.0,32,1,4.7,clear sky,0.0,0.0
542,Ughelli,NG,2020-02-22 18:00:13,5.49,6.01,86.81,65,14,9.6,few clouds,0.0,0.0
543,Artesia,US,2020-02-22 18:00:13,33.87,-118.08,64.0,66,75,11.41,broken clouds,0.0,0.0
544,Beyneu,KZ,2020-02-22 18:00:13,45.32,55.2,36.19,75,1,10.27,clear sky,0.0,0.0
545,Venado Tuerto,AR,2020-02-22 18:00:03,-33.75,-61.97,75.99,33,0,6.26,clear sky,0.0,0.0
546,Xiaolingwei,CN,2020-02-22 18:00:14,32.03,118.85,46.0,69,0,2.24,clear sky,0.0,0.0
547,New Ulm,US,2020-02-22 17:57:23,44.31,-94.46,39.0,74,1,8.05,clear sky,0.0,0.0
548,Konotop,UA,2020-02-22 18:00:14,51.24,33.2,33.4,83,1,9.4,clear sky,0.0,0.0
549,Okha,RU,2020-02-22 17:58:15,53.57,142.95,7.66,97,100,2.98,light snow,0.0,0.13
550,Gazanjyk,TM,2020-02-22 18:00:15,39.24,55.52,48.25,70,100,12.66,overcast clouds,0.0,0.0
551,Pierre,US,2020-02-22 18:00:15,44.37,-100.35,41.0,56,1,13.87,clear sky,0.0,0.0
552,Ambon,ID,2020-02-22 18:00:15,-3.7,128.18,82.4,78,40,10.29,scattered clouds,0.0,0.0
553,Miraflores,MX,2020-02-22 18:00:15,19.22,-98.81,73.4,39,5,3.36,clear sky,0.0,0.0
554,Plouzane,FR,2020-02-22 18:00:03,48.38,-4.62,51.8,100,90,16.11,light intensity drizzle,0.0,0.0
555,Cuamba,MZ,2020-02-22 18:00:15,-14.8,36.54,72.43,94,97,2.86,light rain,1.19,0.0
556,Camacha,PT,2020-02-22 18:00:16,33.08,-16.33,68.0,82,20,24.16,few clouds,0.0,0.0
557,Vila Franca Do Campo,PT,2020-02-22 18:00:16,37.72,-25.43,60.8,67,20,9.17,few clouds,0.0,0.0
558,Biloela,AU,2020-02-22 18:00:16,-24.42,150.5,69.94,81,100,9.53,overcast clouds,0.0,0.0
559,Sao Lourenco,BR,2020-02-22 18:00:16,-22.12,-45.05,75.07,84,89,8.43,moderate rain,3.56,0.0
560,Salyan,AZ,2020-02-22 18:00:16,39.59,48.98,48.02,92,100,4.32,overcast clouds,0.0,0.0
561,Lazaro Cardenas,MX,2020-02-22 17:57:11,17.96,-102.2,88.52,40,0,6.64,clear sky,0.0,0.0
562,Smithers,CA,2020-02-22 17:56:53,54.78,-127.17,23.0,73,40,6.93,scattered clouds,0.0,0.0
